[
  {
    "accessibility": "1",
    "address": "N. University",
    "hours": "Mon-Fri, 6 am to 6 pm",
    "lot": "E1",
    "lat": "42.278267",
    "lng": "-83.731346",
    "name": "E1",
    "type": "Blue",
    "id": "1"
  },
  {
    "accessibility": "1",
    "address": "",
    "hours": "M-F 6am-6pm",
    "lot": "C2",
    "lat": "42.278294",
    "lng": "-83.739563",
    "name": "C2",
    "type": "Blue",
    "id": "2"
  },
  {
    "accessibility": "1",
    "address": "",
    "hours": "M-F 6am-6pm",
    "lot": "E3",
    "lat": "42.278217",
    "lng": "-83.734444",
    "name": "E3",
    "type": "Blue",
    "id": "3"
  },
  {
    "accessibility": "1",
    "address": "",
    "hours": "24 Hours/ M-S",
    "lot": "E8",
    "lat": "42.275944",
    "lng": "-83.734406",
    "name": "E8",
    "type": "Blue",
    "id": "4"
  },
  {
    "accessibility": "1",
    "address": "",
    "hours": "M-F 6am-6pm",
    "lot": "E15",
    "lat": "42.277012",
    "lng": "-83.734924",
    "name": "E15",
    "type": "Blue",
    "id": "5"
  },
  {
    "accessibility": "1",
    "address": "",
    "hours": "M-F 6am-10pm",
    "lot": "N4",
    "lat": "42.280045",
    "lng": "-83.739815",
    "name": "N4",
    "type": "Blue",
    "id": "6"
  },
  {
    "accessibility": "1",
    "address": "",
    "hours": "M-F 6am-6pm",
    "lot": "N8",
    "lat": "42.281128",
    "lng": "-83.738297",
    "name": "N8",
    "type": "Gold",
    "id": "7"
  },
  {
    "accessibility": "0",
    "address": "",
    "hours": "M-F 6am-10pm",
    "lot": "N13",
    "lat": "42.280224",
    "lng": "-83.736107",
    "name": "N13",
    "type": "Blue",
    "id": "8"
  },
  {
    "accessibility": "1",
    "address": "",
    "hours": "M-F 6am-6pm",
    "lot": "N17",
    "lat": "42.278862",
    "lng": "-83.737625",
    "name": "N17",
    "type": "Visitor",
    "id": "9"
  },
  {
    "accessibility": "1",
    "address": "",
    "hours": "M-F 6am-10pm",
    "lot": "N26",
    "lat": "42.279942",
    "lng": "-83.734695",
    "name": "N26",
    "type": "Blue",
    "id": "10"
  },
  {
    "accessibility": "1",
    "address": "",
    "hours": "M-F 6am-6pm",
    "lot": "S5",
    "lat": "42.272747",
    "lng": "-83.739777",
    "name": "S5",
    "type": "Blue",
    "id": "11"
  },
  {
    "accessibility": "1",
    "address": "",
    "hours": "M-F 6am-5pm",
    "lot": "S8",
    "lat": "42.272320",
    "lng": "-83.737015",
    "name": "S8",
    "type": "Blue",
    "id": "12"
  },
  {
    "accessibility": "1",
    "address": "",
    "hours": "M-F 6am-6pm",
    "lot": "W3",
    "lat": "42.275593",
    "lng": "-83.743698",
    "name": "W3",
    "type": "Blue",
    "id": "13"
  },
  {
    "accessibility": "1",
    "address": "",
    "hours": "M-F 6am-6pm",
    "lot": "W5",
    "lat": "42.276325",
    "lng": "-83.741730",
    "name": "W5",
    "type": "Visitor",
    "id": "14"
  },
  {
    "accessibility": "1",
    "address": "",
    "hours": "M-F 6am-6pm",
    "lot": "W9",
    "lat": "42.274567",
    "lng": "-83.745003",
    "name": "W9",
    "type": "Blue",
    "id": "15"
  },
  {
    "accessibility": "1",
    "address": "",
    "hours": "M-F 6am-6pm",
    "lot": "W10",
    "lat": "42.275059",
    "lng": "-83.745766",
    "name": "W10",
    "type": "Blue",
    "id": "16"
  },
  {
    "accessibility": "0",
    "address": "",
    "hours": "M-F 6am-6pm",
    "lot": "W11",
    "lat": "42.279732",
    "lng": "-83.754921",
    "name": "W11",
    "type": "Orange",
    "id": "17"
  },
  {
    "accessibility": "1",
    "address": "",
    "hours": "M-F 6am-6pm",
    "lot": "W13",
    "lat": "42.277012",
    "lng": "-83.742874",
    "name": "W13",
    "type": "Visitor",
    "id": "18"
  },
  {
    "accessibility": "1",
    "address": "",
    "hours": "M-F 6am-6pm",
    "lot": "W16",
    "lat": "42.273933",
    "lng": "-83.743492",
    "name": "W16",
    "type": "Blue",
    "id": "19"
  },
  {
    "accessibility": "1",
    "address": "",
    "hours": "M-F 6am-6pm",
    "lot": "W21",
    "lat": "42.274662",
    "lng": "-83.747887",
    "name": "W21",
    "type": "Blue",
    "id": "20"
  },
  {
    "accessibility": "1",
    "address": "",
    "hours": "M-F 6am-6pm",
    "lot": "W24",
    "lat": "42.278141",
    "lng": "-83.754753",
    "name": "W24",
    "type": "Orange",
    "id": "21"
  },
  {
    "accessibility": "1",
    "address": "",
    "hours": "M-F 6am-6pm",
    "lot": "M5",
    "lat": "42.282944",
    "lng": "-83.734802",
    "name": "M5",
    "type": "Blue",
    "id": "22"
  },
  {
    "accessibility": "1",
    "address": "",
    "hours": "24 hours/ 7 days a week",
    "lot": "M7",
    "lat": "42.285160",
    "lng": "-83.730019",
    "name": "M7",
    "type": "Patient",
    "id": "23"
  },
  {
    "accessibility": "1",
    "address": "",
    "hours": "24 hours/ 7 days a week",
    "lot": "M15",
    "lat": "42.284985",
    "lng": "-83.732292",
    "name": "M15",
    "type": "Blue",
    "id": "24"
  },
  {
    "accessibility": "1",
    "address": "",
    "hours": "24 hours/ 7 days a week",
    "lot": "M18",
    "lat": "42.283039",
    "lng": "-83.727303",
    "name": "M18",
    "type": "Visitor",
    "id": "25"
  },
  {
    "accessibility": "1",
    "address": "",
    "hours": "24 hours/ 7 days a week",
    "lot": "M22",
    "lat": "42.281849",
    "lng": "-83.729118",
    "name": "M22",
    "type": "Blue",
    "id": "26"
  },
  {
    "accessibility": "0",
    "address": "",
    "hours": "M-F 6am-5pm",
    "lot": "M27",
    "lat": "42.282555",
    "lng": "-83.733963",
    "name": "M27",
    "type": "Blue",
    "id": "27"
  },
  {
    "accessibility": "0",
    "address": "",
    "hours": "M-F 6am-5pm",
    "lot": "M28",
    "lat": "42.280342",
    "lng": "-83.728699",
    "name": "M28",
    "type": "Blue",
    "id": "28"
  },
  {
    "accessibility": "0",
    "address": "",
    "hours": "M-F 6am-5pm",
    "lot": "M29",
    "lat": "42.285057",
    "lng": "-83.726440",
    "name": "M29",
    "type": "Blue",
    "id": "29"
  },
  {
    "accessibility": "0",
    "address": "",
    "hours": "",
    "lot": "M30",
    "lat": "42.282745",
    "lng": "-83.726242",
    "name": "M30",
    "type": "Patient",
    "id": "30"
  },
  {
    "accessibility": "1",
    "address": "",
    "hours": "M-F 6am-5pm",
    "lot": "M34",
    "lat": "42.279747",
    "lng": "-83.730812",
    "name": "M34",
    "type": "Blue",
    "id": "31"
  },
  {
    "accessibility": "1",
    "address": "",
    "hours": "M-F 6am-5pm",
    "lot": "M40",
    "lat": "42.287872",
    "lng": "-83.735680",
    "name": "M40",
    "type": "Restricted Patient",
    "id": "32"
  },
  {
    "accessibility": "1",
    "address": "",
    "hours": "M-F 6am-5pm",
    "lot": "M50",
    "lat": "42.288235",
    "lng": "-83.737221",
    "name": "M50",
    "type": "Blue",
    "id": "33"
  },
  {
    "accessibility": "0",
    "address": "",
    "hours": "M-F 6am-5pm",
    "lot": "M56",
    "lat": "42.281635",
    "lng": "-83.736893",
    "name": "M56",
    "type": "Blue",
    "id": "34"
  },
  {
    "accessibility": "1",
    "address": "",
    "hours": "M-F 6am-5pm",
    "lot": "M57",
    "lat": "42.281605",
    "lng": "-83.736443",
    "name": "M57",
    "type": "Blue",
    "id": "35"
  },
  {
    "accessibility": "0",
    "address": "",
    "hours": "M-F 6am-5pm",
    "lot": "M59",
    "lat": "42.281540",
    "lng": "-83.735802",
    "name": "M59",
    "type": "Blue",
    "id": "36"
  },
  {
    "accessibility": "1",
    "address": "",
    "hours": "M-F 6am-6pm",
    "lot": "M61",
    "lat": "42.283382",
    "lng": "-83.734985",
    "name": "M61",
    "type": "Blue",
    "id": "37"
  },
  {
    "accessibility": "1",
    "address": "",
    "hours": "M-F 6am-5pm",
    "lot": "M64",
    "lat": "42.284447",
    "lng": "-83.738213",
    "name": "M64",
    "type": "Gold",
    "id": "38"
  },
  {
    "accessibility": "1",
    "address": "",
    "hours": "M-F 6am-5pm",
    "lot": "M65",
    "lat": "42.284462",
    "lng": "-83.736946",
    "name": "M65",
    "type": "Blue",
    "id": "39"
  },
  {
    "accessibility": "1",
    "address": "",
    "hours": "M-F 6am-5pm",
    "lot": "M66",
    "lat": "42.284927",
    "lng": "-83.738297",
    "name": "M66",
    "type": "Blue",
    "id": "40"
  },
  {
    "accessibility": "1",
    "address": "",
    "hours": "M-F 6am-5pm",
    "lot": "M67",
    "lat": "42.285446",
    "lng": "-83.736443",
    "name": "M67",
    "type": "Blue",
    "id": "41"
  },
  {
    "accessibility": "1",
    "address": "",
    "hours": "",
    "lot": "M69",
    "lat": "42.284756",
    "lng": "-83.734665",
    "name": "M69",
    "type": "Visitor",
    "id": "42"
  },
  {
    "accessibility": "1",
    "address": "",
    "hours": "M-F 6am-5pm",
    "lot": "M71",
    "lat": "42.286217",
    "lng": "-83.730110",
    "name": "M71",
    "type": "Yellow",
    "id": "43"
  },
  {
    "accessibility": "1",
    "address": "",
    "hours": "M-F 6am-5pm",
    "lot": "M75",
    "lat": "42.286785",
    "lng": "-83.722702",
    "name": "M75",
    "type": "Orange",
    "id": "44"
  },
  {
    "accessibility": "1",
    "address": "",
    "hours": "M-F 6am-5pm",
    "lot": "M76",
    "lat": "42.289009",
    "lng": "-83.737320",
    "name": "M76",
    "type": "Blue",
    "id": "45"
  },
  {
    "accessibility": "1",
    "address": "",
    "hours": "M-F 6am-5pm",
    "lot": "M78",
    "lat": "42.287365",
    "lng": "-83.730057",
    "name": "M78",
    "type": "Yellow",
    "id": "46"
  },
  {
    "accessibility": "1",
    "address": "",
    "hours": "24 hours/ 7 days a week",
    "lot": "M85",
    "lat": "42.282372",
    "lng": "-83.730522",
    "name": "M85",
    "type": "Patient & Gold",
    "id": "47"
  },
  {
    "accessibility": "1",
    "address": "",
    "hours": "M-F 6am-6pm",
    "lot": "M86",
    "lat": "42.282429",
    "lng": "-83.734695",
    "name": "M86",
    "type": "Blue",
    "id": "48"
  },
  {
    "accessibility": "0",
    "address": "",
    "hours": "M-F 6am-5pm",
    "lot": "M87",
    "lat": "42.288788",
    "lng": "-83.739037",
    "name": "M87",
    "type": "Blue",
    "id": "49"
  },
  {
    "accessibility": "1",
    "address": "",
    "hours": "M-F 6am-5pm",
    "lot": "M91",
    "lat": "42.288818",
    "lng": "-83.736679",
    "name": "M91",
    "type": "Blue",
    "id": "50"
  },
  {
    "accessibility": "0",
    "address": "",
    "hours": "M-F 6am-5pm",
    "lot": "M92",
    "lat": "42.288330",
    "lng": "-83.735802",
    "name": "M92",
    "type": "Blue",
    "id": "51"
  },
  {
    "accessibility": "0",
    "address": "",
    "hours": "",
    "lot": "M95",
    "lat": "42.281399",
    "lng": "-83.727234",
    "name": "M95",
    "type": "Blue",
    "id": "52"
  },
  {
    "accessibility": "0",
    "address": "",
    "hours": "M-F 6am-5pm",
    "lot": "NC5",
    "lat": "42.287708",
    "lng": "-83.714706",
    "name": "NC5",
    "type": "Visitor",
    "id": "53"
  },
  {
    "accessibility": "0",
    "address": "",
    "hours": "M-F 6am-5pm",
    "lot": "NC8",
    "lat": "42.287960",
    "lng": "-83.713806",
    "name": "NC8",
    "type": "Blue",
    "id": "54"
  },
  {
    "accessibility": "0",
    "address": "",
    "hours": "M-F 6am-5pm",
    "lot": "NC9",
    "lat": "42.298389",
    "lng": "-83.702477",
    "name": "NC9",
    "type": "Yellow",
    "id": "55"
  },
  {
    "accessibility": "1",
    "address": "",
    "hours": "M-F 6am-5pm",
    "lot": "NC10",
    "lat": "42.289326",
    "lng": "-83.721809",
    "name": "NC10",
    "type": "Blue",
    "id": "56"
  },
  {
    "accessibility": "1",
    "address": "",
    "hours": "M-F 6am-5pm",
    "lot": "NC16",
    "lat": "42.289692",
    "lng": "-83.713890",
    "name": "NC16",
    "type": "Blue",
    "id": "57"
  },
  {
    "accessibility": "1",
    "address": "",
    "hours": "M-F 6am-5pm",
    "lot": "NC21",
    "lat": "42.293674",
    "lng": "-83.716400",
    "name": "NC21",
    "type": "Blue",
    "id": "58"
  },
  {
    "accessibility": "1",
    "address": "",
    "hours": "M-F 6am-5pm",
    "lot": "NC22",
    "lat": "42.293247",
    "lng": "-83.709839",
    "name": "NC22",
    "type": "Blue",
    "id": "59"
  },
  {
    "accessibility": "0",
    "address": "",
    "hours": "M-F 6am-5pm",
    "lot": "NC26",
    "lat": "42.293961",
    "lng": "-83.708595",
    "name": "NC26",
    "type": "Visitor",
    "id": "60"
  },
  {
    "accessibility": "1",
    "address": "",
    "hours": "M-S 6am-8pm",
    "lot": "NC27",
    "lat": "42.292389",
    "lng": "-83.716873",
    "name": "NC27",
    "type": "Blue",
    "id": "61"
  },
  {
    "accessibility": "1",
    "address": "",
    "hours": "M-F 6am-5pm",
    "lot": "NC28",
    "lat": "42.294930",
    "lng": "-83.711105",
    "name": "NC28",
    "type": "Blue",
    "id": "62"
  },
  {
    "accessibility": "1",
    "address": "",
    "hours": "M-F 6am-5pm",
    "lot": "NC32",
    "lat": "42.292198",
    "lng": "-83.723763",
    "name": "NC32",
    "type": "Orange",
    "id": "63"
  },
  {
    "accessibility": "1",
    "address": "",
    "hours": "M-F 6am-5pm",
    "lot": "NC34",
    "lat": "42.297421",
    "lng": "-83.702522",
    "name": "NC34",
    "type": "Yellow",
    "id": "64"
  },
  {
    "accessibility": "1",
    "address": "",
    "hours": "M-F 7am-7pm",
    "lot": "NC37",
    "lat": "42.300343",
    "lng": "-83.693726",
    "name": "NC37",
    "type": "Park & Ride",
    "id": "65"
  },
  {
    "accessibility": "0",
    "address": "",
    "hours": "M-F 6am-5pm",
    "lot": "NC38",
    "lat": "42.297054",
    "lng": "-83.697327",
    "name": "NC38",
    "type": "Yellow",
    "id": "66"
  },
  {
    "accessibility": "1",
    "address": "",
    "hours": "M-F 6am-5pm",
    "lot": "NC40",
    "lat": "42.295643",
    "lng": "-83.725716",
    "name": "NC40",
    "type": "Yellow",
    "id": "67"
  },
  {
    "accessibility": "1",
    "address": "",
    "hours": "M-F 6am-5pm",
    "lot": "NC43",
    "lat": "42.288376",
    "lng": "-83.717476",
    "name": "NC43",
    "type": "Blue",
    "id": "68"
  },
  {
    "accessibility": "1",
    "address": "",
    "hours": "M-F 6am-5pm",
    "lot": "NC44",
    "lat": "42.295010",
    "lng": "-83.720306",
    "name": "NC44",
    "type": "Visitor",
    "id": "69"
  },
  {
    "accessibility": "1",
    "address": "",
    "hours": "M-F 6am-5pm",
    "lot": "NC45",
    "lat": "42.295357",
    "lng": "-83.719109",
    "name": "NC45",
    "type": "Blue",
    "id": "70"
  },
  {
    "accessibility": "1",
    "address": "",
    "hours": "M-F 6am-5pm",
    "lot": "NC46",
    "lat": "42.295597",
    "lng": "-83.708336",
    "name": "NC46",
    "type": "Orange",
    "id": "71"
  },
  {
    "accessibility": "0",
    "address": "",
    "hours": "M-F 6am-5pm",
    "lot": "NC48",
    "lat": "42.293594",
    "lng": "-83.717392",
    "name": "NC48",
    "type": "Blue",
    "id": "72"
  },
  {
    "accessibility": "1",
    "address": "",
    "hours": "M-F 6am-5pm",
    "lot": "NC51",
    "lat": "42.289040",
    "lng": "-83.705139",
    "name": "NC51",
    "type": "Orange",
    "id": "73"
  },
  {
    "accessibility": "1",
    "address": "",
    "hours": "M-F 6am-7pm",
    "lot": "NC52",
    "lat": "42.288391",
    "lng": "-83.707115",
    "name": "NC52",
    "type": "Orange",
    "id": "74"
  },
  {
    "accessibility": "1",
    "address": "",
    "hours": "M-F 6am-5pm",
    "lot": "NC53",
    "lat": "42.295010",
    "lng": "-83.707413",
    "name": "NC52",
    "type": "Yellow",
    "id": "75"
  },
  {
    "accessibility": "0",
    "address": "",
    "hours": "M-F 6am-5pm",
    "lot": "NC54",
    "lat": "42.300262",
    "lng": "-83.712067",
    "name": "NC54",
    "type": "Orange",
    "id": "76"
  },
  {
    "accessibility": "1",
    "address": "",
    "hours": "M-F 6am-8pm",
    "lot": "NC60",
    "lat": "42.290928",
    "lng": "-83.712624",
    "name": "NC60",
    "type": "Blue",
    "id": "77"
  },
  {
    "accessibility": "1",
    "address": "",
    "hours": "M-F 6am-10pm",
    "lot": "NC61",
    "lat": "42.298515",
    "lng": "-83.698273",
    "name": "NC61",
    "type": "Yellow",
    "id": "78"
  },
  {
    "accessibility": "1",
    "address": "",
    "hours": "M-F 6am-10pm",
    "lot": "NC62",
    "lat": "42.298294",
    "lng": "-83.695396",
    "name": "NC62",
    "type": "Yellow",
    "id": "79"
  },
  {
    "accessibility": "1",
    "address": "",
    "hours": "M-F 6am-5pm",
    "lot": "NC63",
    "lat": "42.295769",
    "lng": "-83.701981",
    "name": "NC63",
    "type": "Yellow",
    "id": "80"
  },
  {
    "accessibility": "1",
    "address": "",
    "hours": "M-F 6am-5pm",
    "lot": "NC65",
    "lat": "42.296928",
    "lng": "-83.701874",
    "name": "NC65",
    "type": "Yellow",
    "id": "81"
  },
  {
    "accessibility": "1",
    "address": "",
    "hours": "M-F 6am-5pm",
    "lot": "NC67",
    "lat": "42.296150",
    "lng": "-83.696983",
    "name": "NC67",
    "type": "Yellow",
    "id": "82"
  },
  {
    "accessibility": "1",
    "address": "",
    "hours": "M-F 6am-5pm",
    "lot": "NC70",
    "lat": "42.292786",
    "lng": "-83.711960",
    "name": "NC70",
    "type": "Blue",
    "id": "83"
  },
  {
    "accessibility": "1",
    "address": "",
    "hours": "M-F 6am-5pm",
    "lot": "NC74",
    "lat": "42.294689",
    "lng": "-83.709389",
    "name": "NC74",
    "type": "Blue",
    "id": "84"
  },
  {
    "accessibility": "1",
    "address": "",
    "hours": "M-F 6am-5pm",
    "lot": "NC78",
    "lat": "42.287739",
    "lng": "-83.722794",
    "name": "NC78",
    "type": "Orange",
    "id": "85"
  },
  {
    "accessibility": "1",
    "address": "",
    "hours": "M-F 6am-5pm",
    "lot": "NC81",
    "lat": "42.291630",
    "lng": "-83.706619",
    "name": "NC81",
    "type": "Yellow",
    "id": "86"
  },
  {
    "accessibility": "1",
    "address": "",
    "hours": "M-F 6am-5pm",
    "lot": "NC83",
    "lat": "42.301723",
    "lng": "-83.702652",
    "name": "NC83",
    "type": "Yellow",
    "id": "87"
  },
  {
    "accessibility": "1",
    "address": "",
    "hours": "M-F 6am-5pm",
    "lot": "NC84",
    "lat": "42.300484",
    "lng": "-83.703720",
    "name": "NC84",
    "type": "Blue",
    "id": "88"
  },
  {
    "accessibility": "0",
    "address": "",
    "hours": "M-F 6am-5pm",
    "lot": "NC85",
    "lat": "42.298946",
    "lng": "-83.702866",
    "name": "NC85",
    "type": "Yellow",
    "id": "89"
  },
  {
    "accessibility": "1",
    "address": "",
    "hours": "M-F 6am-5pm",
    "lot": "NC86",
    "lat": "42.299229",
    "lng": "-83.702087",
    "name": "NC86",
    "type": "Yellow",
    "id": "90"
  },
  {
    "accessibility": "0",
    "address": "",
    "hours": "M-F 6am-5pm",
    "lot": "NC90",
    "lat": "42.296787",
    "lng": "-83.706322",
    "name": "NC90",
    "type": "Orange",
    "id": "91"
  },
  {
    "accessibility": "1",
    "address": "",
    "hours": "M-F 6am-5pm",
    "lot": "NC91",
    "lat": "42.297039",
    "lng": "-83.707565",
    "name": "NC91",
    "type": "Orange",
    "id": "92"
  },
  {
    "accessibility": "1",
    "address": "",
    "hours": "M-F 6am-5pm",
    "lot": "NC92",
    "lat": "42.297832",
    "lng": "-83.706703",
    "name": "NC92",
    "type": "Yellow",
    "id": "93"
  },
  {
    "accessibility": "0",
    "address": "",
    "hours": "M-F 6am-5pm",
    "lot": "NC93",
    "lat": "42.298611",
    "lng": "-83.705162",
    "name": "NC93",
    "type": "Yellow",
    "id": "94"
  },
  {
    "accessibility": "0",
    "address": "",
    "hours": "M-F 6am-5pm",
    "lot": "NC95",
    "lat": "42.298756",
    "lng": "-83.708015",
    "name": "NC95",
    "type": "Yellow",
    "id": "95"
  },
  {
    "accessibility": "1",
    "address": "",
    "hours": "M-F 6am-5pm",
    "lot": "NC96",
    "lat": "42.299183",
    "lng": "-83.708488",
    "name": "NC96",
    "type": "Yellow",
    "id": "96"
  },
  {
    "accessibility": "0",
    "address": "",
    "hours": "M-F 6:30am-6:30pm",
    "lot": "NC97",
    "lat": "42.300739",
    "lng": "-83.708786",
    "name": "NC97",
    "type": "Yellow",
    "id": "97"
  },
  {
    "accessibility": "0",
    "address": "",
    "hours": "M-F 6am-5pm",
    "lot": "NC98",
    "lat": "42.300705",
    "lng": "-83.706703",
    "name": "NC98",
    "type": "Yellow",
    "id": "98"
  },
  {
    "accessibility": "0",
    "address": "",
    "hours": "M-F 6am-5pm",
    "lot": "NC99",
    "lat": "42.301659",
    "lng": "-83.706963",
    "name": "NC99",
    "type": "Yellow",
    "id": "99"
  },
  {
    "accessibility": "1",
    "address": "",
    "hours": "M-F 6am-5pm",
    "lot": "NC100",
    "lat": "42.301723",
    "lng": "-83.705673",
    "name": "NC100",
    "type": "Blue",
    "id": "100"
  },
  {
    "accessibility": "1",
    "address": "",
    "hours": "M-F 6am-5pm",
    "lot": "NC103",
    "lat": "42.298447",
    "lng": "-83.695404",
    "name": "NC103",
    "type": "Yellow",
    "id": "101"
  },
  {
    "accessibility": "1",
    "address": "",
    "hours": "M-F 6am-5pm",
    "lot": "SC2",
    "lat": "42.268082",
    "lng": "-83.747948",
    "name": "SC2",
    "type": "Blue",
    "id": "102"
  },
  {
    "accessibility": "0",
    "address": "",
    "hours": "M-F 6am-5pm",
    "lot": "SC4",
    "lat": "42.267200",
    "lng": "-83.746803",
    "name": "SC4",
    "type": "Yellow",
    "id": "103"
  },
  {
    "accessibility": "1",
    "address": "",
    "hours": "M-F 6am-5pm",
    "lot": "SC5",
    "lat": "42.266090",
    "lng": "-83.745667",
    "name": "SC5",
    "type": "Yellow",
    "id": "104"
  },
  {
    "accessibility": "0",
    "address": "",
    "hours": "M-F 6am-5pm",
    "lot": "SC6",
    "lat": "42.264977",
    "lng": "-83.745232",
    "name": "SC6",
    "type": "Orange",
    "id": "105"
  },
  {
    "accessibility": "1",
    "address": "",
    "hours": "M-F 6am-5pm",
    "lot": "SC7",
    "lat": "42.264065",
    "lng": "-83.743645",
    "name": "SC7",
    "type": "Orange",
    "id": "106"
  },
  {
    "accessibility": "1",
    "address": "",
    "hours": "M-F 6am-5pm",
    "lot": "SC9",
    "lat": "42.272320",
    "lng": "-83.745125",
    "name": "SC9",
    "type": "Yellow",
    "id": "107"
  },
  {
    "accessibility": "1",
    "address": "",
    "hours": "M-F 6am-5pm",
    "lot": "SC12",
    "lat": "42.270977",
    "lng": "-83.747253",
    "name": "SC12",
    "type": "Blue",
    "id": "108"
  },
  {
    "accessibility": "1",
    "address": "",
    "hours": "M-F 6am-5pm",
    "lot": "SC13",
    "lat": "42.270210",
    "lng": "-83.747360",
    "name": "SC13",
    "type": "Blue",
    "id": "109"
  },
  {
    "accessibility": "1",
    "address": "",
    "hours": "M-F 6am-5pm",
    "lot": "SC14",
    "lat": "42.269810",
    "lng": "-83.747208",
    "name": "SC14",
    "type": "Blue",
    "id": "110"
  },
  {
    "accessibility": "1",
    "address": "",
    "hours": "M-F 6am-5pm",
    "lot": "SC16",
    "lat": "42.265392",
    "lng": "-83.744606",
    "name": "SC16",
    "type": "Yellow",
    "id": "111"
  },
  {
    "accessibility": "1",
    "address": "",
    "hours": "M-F 6am-5pm",
    "lot": "SC17",
    "lat": "42.242744",
    "lng": "-83.736099",
    "name": "SC17",
    "type": "Yellow",
    "id": "112"
  },
  {
    "accessibility": "1",
    "address": "",
    "hours": "M-F 6am-5pm",
    "lot": "SC32",
    "lat": "42.269032",
    "lng": "-83.747681",
    "name": "SC32",
    "type": "Visitor Metered Lot",
    "id": "113"
  },
  {
    "accessibility": "1",
    "address": "",
    "hours": "M-F 7am-7pm",
    "lot": "SC34",
    "lat": "42.248829",
    "lng": "-83.740768",
    "name": "SC34",
    "type": "Park & Ride",
    "id": "114"
  },
  {
    "accessibility": "0",
    "address": "",
    "hours": "M-F 6am-5pm",
    "lot": "SC35",
    "lat": "42.268257",
    "lng": "-83.748703",
    "name": "SC35",
    "type": "Yellow",
    "id": "115"
  },
  {
    "accessibility": "1",
    "address": "",
    "hours": "M-F 6am-5pm",
    "lot": "SC36",
    "lat": "42.268127",
    "lng": "-83.749504",
    "name": "SC36",
    "type": "Orange",
    "id": "116"
  },
  {
    "accessibility": "1",
    "address": "",
    "hours": "M-F 6am-5pm",
    "lot": "SC37",
    "lat": "42.269417",
    "lng": "-83.745232",
    "name": "SC37",
    "type": "Blue",
    "id": "117"
  },
  {
    "accessibility": "1",
    "address": "",
    "hours": "M-F 6am-5pm",
    "lot": "SC38",
    "lat": "42.271366",
    "lng": "-83.744934",
    "name": "SC38",
    "type": "Yellow",
    "id": "118"
  },
  {
    "accessibility": "1",
    "address": "",
    "hours": "M-F 7am-7pm",
    "lot": "SC39",
    "lat": "42.252728",
    "lng": "-83.743515",
    "name": "SC39",
    "type": "Park & Ride",
    "id": "119"
  },
  {
    "accessibility": "0",
    "address": "",
    "hours": "M-F 6am-5pm",
    "lot": "SC41",
    "lat": "42.269279",
    "lng": "-83.749222",
    "name": "SC41",
    "type": "Orange",
    "id": "120"
  }
]